City_ID,City,Lat,Lng,Max Temp,Humidity,Cloudiness,Wind Speed,Country,Date
0,songjianghe,42.1859,127.479,28.54,97,100,3.56,CN,1611625257
1,ushuaia,-54.8,-68.3,46.4,61,75,21.85,AR,1611624933
2,hithadhoo,-0.6,73.0833,80.8,74,100,3.62,MV,1611624923
3,barrow,71.2906,-156.7887,-5.8,84,40,12.66,US,1611624920
4,narsaq,60.9167,-46.05,24.8,26,54,27.63,GL,1611624750
5,avarua,-21.2078,-159.775,86.0,70,40,12.66,CK,1611624921
6,hobart,-42.8794,147.3294,71.6,40,75,14.97,AU,1611624825
7,guerrero negro,27.9769,-114.0611,57.79,58,24,19.77,MX,1611624929
8,gondar,12.6,37.4667,55.98,53,0,5.21,ET,1611625259
9,faanui,-16.4833,-151.75,81.21,76,100,18.03,PF,1611624969
10,yellowknife,62.456,-114.3525,-20.0,69,75,10.36,CA,1611624714
11,mananjary,-21.2167,48.3333,74.98,87,8,5.59,MG,1611625260
12,punta arenas,-53.15,-70.9167,44.6,57,0,24.16,CL,1611624788
13,kapustin yar,48.5831,45.7372,30.13,95,95,13.15,RU,1611625260
14,padang,-0.9492,100.3543,77.0,88,75,3.44,ID,1611624947
15,thompson,55.7435,-97.8558,-13.0,77,40,3.44,CA,1611624758
16,bredasdorp,-34.5322,20.0403,62.6,94,46,4.61,ZA,1611624852
17,arraial do cabo,-22.9661,-42.0278,75.96,85,7,22.97,BR,1611624753
18,kirksville,40.1948,-92.5833,30.99,93,90,11.5,US,1611625261
19,ostrovnoy,68.0531,39.5131,15.4,95,100,14.05,RU,1611625001
20,presidencia roque saenz pena,-26.7852,-60.4388,80.01,84,28,5.99,AR,1611625007
21,vila franca do campo,37.7167,-25.4333,63.0,94,75,13.8,PT,1611624971
22,tasiilaq,65.6145,-37.6368,8.6,52,94,14.97,GL,1611624747
23,mandalgovi,45.7625,106.2708,-2.97,82,36,4.94,MN,1611625089
24,bethel,41.3712,-73.414,28.4,50,1,3.8,US,1611624943
25,pisco,-13.7,-76.2167,69.8,78,0,19.57,PE,1611624769
26,puerto boyaca,5.9758,-74.5885,76.39,87,99,0.94,CO,1611625262
27,hasaki,35.7333,140.8333,48.2,76,75,9.22,JP,1611624933
28,geraldton,-28.7667,114.6,73.02,61,57,15.39,AU,1611624936
29,cabedelo,-6.9811,-34.8339,77.0,83,0,6.91,BR,1611625262
30,sao joao da barra,-21.6403,-41.0511,76.57,87,0,14.56,BR,1611624840
31,havoysund,70.9963,24.6622,19.4,79,90,12.66,NO,1611624989
32,ormara,25.2088,64.6357,64.22,28,0,6.73,PK,1611625263
33,dingle,10.9995,122.6711,79.7,76,100,11.63,PH,1611624761
34,pangnirtung,66.1451,-65.7125,9.14,78,0,3.65,CA,1611624926
35,coahuayana,18.7333,-103.6833,75.2,73,40,1.45,MX,1611624988
36,isangel,-19.55,169.2667,86.0,74,75,6.91,VU,1611624962
37,lata,40.1629,-8.3327,59.0,95,100,1.01,PT,1611624784
38,gander,48.9682,-54.5906,28.4,93,90,9.22,CA,1611625264
39,salalah,17.0151,54.0924,69.8,37,0,9.22,OM,1611624936
40,vila velha,-20.3297,-40.2925,78.8,78,20,6.91,BR,1611624960
41,bambous virieux,-20.3428,57.7575,75.0,88,20,5.75,MU,1611624965
42,hilo,19.7297,-155.09,77.0,73,90,11.5,US,1611624743
43,georgetown,5.4112,100.3354,78.8,78,20,3.44,MY,1611624849
44,hami,42.8,93.45,18.0,77,100,0.54,CN,1611624823
45,evensk,61.95,159.2333,5.29,85,100,13.11,RU,1611625265
46,harper,4.375,-7.7169,77.67,86,0,5.97,LR,1611624790
47,bluff,-46.6,168.3333,82.99,44,100,21.0,NZ,1611624931
48,bois-guillaume,49.4602,1.1222,34.0,100,20,6.91,FR,1611625265
49,chokurdakh,70.6333,147.9167,-41.8,78,27,3.18,RU,1611624991
50,kununurra,-15.7667,128.7333,80.6,100,100,3.44,AU,1611624985
51,puerto ayora,-0.7393,-90.3518,77.0,94,58,5.01,EC,1611624754
52,souillac,-20.5167,57.5167,71.6,88,20,5.75,MU,1611624972
53,albany,42.6001,-73.9662,25.0,61,100,1.43,US,1611624925
54,rikitea,-23.1203,-134.9692,79.83,70,1,12.73,PF,1611624932
55,san jose,37.3394,-121.895,48.2,57,20,20.71,US,1611624900
56,mangrol,21.1167,70.1167,60.12,36,0,11.72,IN,1611625008
57,upernavik,72.7868,-56.1549,5.02,82,0,5.82,GL,1611624985
58,shujaabad,29.8797,71.2931,44.6,81,0,0.51,PK,1611625266
59,champerico,14.3,-91.9167,84.2,70,20,9.22,GT,1611625024
60,aquidauana,-20.4711,-55.7872,74.79,92,100,5.73,BR,1611625267
61,koulamoutou,-1.1303,12.4736,71.35,93,93,2.19,GA,1611625267
62,hermanus,-34.4187,19.2345,60.01,91,18,6.46,ZA,1611624920
63,vaini,-21.2,-175.2,82.4,89,75,9.22,TO,1611624736
64,qaanaaq,77.484,-69.3632,6.24,63,0,7.31,GL,1611624952
65,plast,54.3691,60.8136,19.85,96,0,8.32,RU,1611625267
66,romanovka,51.7443,42.7527,33.67,93,100,13.94,RU,1611625268
67,port alfred,-33.5906,26.891,63.0,92,0,11.5,ZA,1611624938
68,tiksi,71.6872,128.8694,-38.79,80,99,5.79,RU,1611624956
69,namibe,-15.1961,12.1522,75.02,76,77,3.67,AO,1611624965
70,krasnoselkup,65.7,82.4667,-34.08,81,100,13.0,RU,1611624966
71,kaitangata,-46.2817,169.8464,78.37,41,100,15.93,NZ,1611624993
72,henties bay,-22.116,14.2845,69.01,89,100,6.51,NA,1611624920
73,kavaratti,10.5669,72.642,81.12,70,17,10.07,IN,1611624944
74,vorozhba,51.1733,34.2192,37.18,87,100,21.97,UA,1611625269
75,longhua,23.6137,114.1919,72.3,49,1,3.87,CN,1611625269
76,butaritari,3.0707,172.7902,79.92,76,99,6.85,KI,1611624922
77,kavieng,-2.5744,150.7967,84.22,70,61,5.7,PG,1611624759
78,caconda,-13.7333,15.0667,62.06,55,94,3.8,AO,1611625008
79,mount isa,-20.7333,139.5,95.0,31,75,6.91,AU,1611624947
80,mataura,-46.1927,168.8643,82.99,44,100,21.0,NZ,1611624920
81,ojinaga,29.5667,-104.4167,59.0,29,1,5.75,MX,1611625070
82,the valley,18.217,-63.0578,77.0,78,40,9.22,AI,1611625270
83,saskylakh,71.9167,114.0833,-32.04,82,47,4.12,RU,1611624750
84,kungalv,57.871,11.9805,28.99,91,100,4.79,SE,1611625271
85,inuvik,68.3499,-133.7218,-7.6,77,99,3.44,CA,1611624968
86,sola,-13.8833,167.55,84.2,79,90,1.14,VU,1611624949
87,wakefield,53.6809,-1.499,35.01,87,75,7.34,GB,1611625122
88,nyakabindi,-2.6333,33.9833,63.99,91,100,4.63,TZ,1611625214
89,aksarka,66.5606,67.7975,-16.22,88,100,7.29,RU,1611624999
90,leningradskiy,69.3833,178.4167,-15.75,86,100,17.05,RU,1611624941
91,atuona,-9.8,-139.0333,78.55,77,21,18.32,PF,1611624924
92,ballina,-28.8667,153.5667,86.0,61,0,16.11,AU,1611625024
93,busselton,-33.65,115.3333,75.0,51,21,3.67,AU,1611624798
94,piacabucu,-10.4056,-36.4344,76.91,83,100,9.48,BR,1611625061
95,husavik,66.0449,-17.3389,23.0,86,90,5.75,IS,1611625013
96,khatanga,71.9667,102.5,-19.37,88,100,8.16,RU,1611624738
97,meridian,43.6121,-116.3915,33.8,93,100,3.44,US,1611625273
98,gornopravdinsk,60.05,69.9,-8.3,90,100,7.74,RU,1611625273
99,klaksvik,62.2266,-6.589,28.4,80,75,10.36,FO,1611624989
100,isetskoye,56.4858,65.3226,24.94,97,100,12.95,RU,1611625273
101,jamestown,42.097,-79.2353,30.2,59,75,6.91,US,1611624932
102,atambua,-9.1061,124.8925,78.62,79,95,5.1,ID,1611625005
103,ilulissat,69.2167,-51.1,6.8,56,0,10.36,GL,1611624767
104,ponta do sol,32.6667,-17.1,59.0,74,3,1.99,PT,1611624964
105,constitucion,-35.3333,-72.4167,56.73,71,0,13.67,CL,1611624956
106,kapaa,22.0752,-159.319,75.99,88,75,20.71,US,1611624924
107,kahului,20.8947,-156.47,78.8,65,40,17.27,US,1611624796
108,east london,-33.0153,27.9116,68.77,78,0,12.33,ZA,1611624930
109,praya,14.9215,-23.5087,69.8,64,0,8.05,CV,1611624995
110,smithers,54.7804,-127.1743,21.2,86,90,0.94,CA,1611624837
111,nalut,30.3333,10.85,54.77,41,76,7.05,LY,1611625274
112,olafsvik,64.8945,-23.7142,27.37,92,100,27.98,IS,1611624981
113,montlucon,46.3333,2.6,26.01,95,22,1.01,FR,1611625275
114,lazaro cardenas,17.9583,-102.2,73.47,85,8,3.94,MX,1611624824
115,iqaluit,63.7506,-68.5145,0.0,85,1,4.61,CA,1611624941
116,buckeye,33.3703,-112.5838,50.0,61,98,9.22,US,1611625001
117,chuy,-33.6971,-53.4616,72.25,87,0,7.36,UY,1611624739
118,grindavik,63.8424,-22.4338,28.4,54,90,27.63,IS,1611624757
119,mercedes,-34.6515,-59.4307,84.0,75,63,1.01,AR,1611625120
120,sitka,57.0531,-135.33,35.6,75,20,3.44,US,1611624747
121,karakol,42.4907,78.3936,16.3,77,0,5.14,KG,1611625276
122,kudymkar,59.0173,54.656,29.48,98,100,8.93,RU,1611625276
123,mahebourg,-20.4081,57.7,71.6,88,20,5.75,MU,1611624973
124,nyrob,60.733,56.7202,35.13,96,100,9.22,RU,1611625276
125,meulaboh,4.1363,96.1285,80.55,74,40,5.14,ID,1611624974
126,airai,-8.9266,125.4092,69.73,86,91,4.79,TL,1611624935
127,vardo,70.3705,31.1107,28.09,97,100,25.75,NO,1611624929
128,carnarvon,-24.8667,113.6333,77.0,57,40,23.02,AU,1611624951
129,zhitnevo,55.3423,37.9146,32.0,93,90,13.42,RU,1611625277
130,bathsheba,13.2167,-59.5167,78.8,69,20,16.11,BB,1611624928
131,nikolskoye,59.7035,30.7861,37.0,93,90,8.95,RU,1611624924
132,dobryanka,58.4619,56.4165,30.2,100,75,17.9,RU,1611625277
133,casalmaggiore,44.9939,10.4189,36.0,65,1,12.08,IT,1611625277
134,vao,-22.6667,167.4833,76.64,78,97,22.66,NC,1611624962
135,mtwara,-10.2667,40.1833,75.2,88,20,8.05,TZ,1611625278
136,cabo san lucas,22.8909,-109.9124,64.4,63,40,13.8,MX,1611624948
137,ulladulla,-35.35,150.4667,97.0,23,96,17.27,AU,1611624832
138,adrar,20.5022,-10.0711,65.23,22,0,8.95,MR,1611624767
139,sokoni,-6.4333,39.55,78.8,83,20,6.11,TZ,1611625278
140,ribeira grande,38.5167,-28.7,63.23,88,100,22.91,PT,1611624961
141,lokosovo,61.1333,74.8167,-24.5,86,100,13.22,RU,1611625105
142,provideniya,64.3833,-173.3,5.0,72,90,20.13,RU,1611624941
143,ust-nera,64.5667,143.2,-27.85,75,45,2.64,RU,1611625279
144,rojhan,28.6868,69.9534,44.46,56,0,2.24,PK,1611625279
145,hofn,64.2539,-15.2082,24.3,89,100,17.78,IS,1611624765
146,dikson,73.5069,80.5464,-25.17,85,100,12.01,RU,1611624940
147,srednekolymsk,67.45,153.6833,-38.07,80,73,2.35,RU,1611624931
148,hamina,60.5697,27.1979,32.0,93,90,6.91,FI,1611625280
149,ende,-8.8432,121.6623,84.18,64,96,5.77,ID,1611625280
150,egvekinot,66.3167,-179.1667,-11.43,88,44,7.76,RU,1611625088
151,dillon,34.4166,-79.3712,51.01,100,90,7.9,US,1611625280
152,muzhi,65.3667,64.6667,-11.63,90,100,5.37,RU,1611625280
153,colares,38.7992,-9.4469,60.01,100,100,11.01,PT,1611625098
154,fairbanks,64.8378,-147.7164,1.4,85,40,2.28,US,1611624857
155,naze,28.3667,129.4833,64.4,94,75,11.5,JP,1611625014
156,kodiak,57.79,-152.4072,37.4,75,75,11.5,US,1611624951
157,cockburn town,21.4612,-71.1419,75.78,80,26,22.5,TC,1611624942
158,bay roberts,47.5999,-53.2648,28.99,88,100,3.0,CA,1611625281
159,new norfolk,-42.7826,147.0587,70.0,59,65,5.99,AU,1611624930
160,carauari,-4.8828,-66.8958,74.93,95,98,0.94,BR,1611625065
161,fez,34.0372,-4.9998,50.0,93,40,6.91,MA,1611625281
162,lincoln,40.8,-96.667,24.8,80,90,17.27,US,1611624991
163,victoria,22.2855,114.1577,66.99,77,41,8.43,HK,1611624802
164,chany,55.3121,76.7647,-14.93,89,100,5.77,RU,1611625282
165,encruzilhada do sul,-30.5439,-52.5219,69.12,88,1,3.15,BR,1611625282
166,mombetsu,44.3525,143.3525,12.2,57,40,4.61,JP,1611625282
167,mount gambier,-37.8333,140.7667,69.8,56,75,14.97,AU,1611624686
168,tuktoyaktuk,69.4541,-133.0374,-4.0,84,90,11.5,CA,1611624925
169,thongwa,16.7619,96.5278,64.4,100,1,3.44,MM,1611625282
170,ancud,-41.8697,-73.8203,55.0,62,0,4.61,CL,1611624923
171,norwich,52.6278,1.2983,34.0,86,0,12.66,GB,1611625255
172,severodvinsk,64.5635,39.8302,35.6,93,90,4.47,RU,1611625283
173,zhigansk,66.7697,123.3711,-56.11,62,55,2.15,RU,1611625035
174,bacolod,10.6667,122.95,81.16,67,81,12.53,PH,1611625283
175,stutterheim,-32.5708,27.424,61.05,84,30,6.04,ZA,1611625283
176,kedougou,12.5579,-12.1743,69.75,20,0,1.81,SN,1611625283
177,sechura,-5.5569,-80.8222,76.95,64,100,11.95,PE,1611625096
178,pombas,17.1503,-25.0201,69.8,78,20,18.41,CV,1611625284
179,saint-philippe,-21.3585,55.7679,77.0,73,0,8.05,RE,1611624923
180,kinablangan,7.6947,126.5503,82.17,73,50,7.02,PH,1611625284
181,sarankhola,22.3082,89.7897,67.08,55,0,3.8,BD,1611625284
182,garissa,-0.4536,39.6401,74.19,78,97,8.52,KE,1611625284
183,opuwo,-18.0607,13.84,66.4,77,15,2.8,NA,1611625015
184,port elizabeth,-33.918,25.5701,64.4,94,0,1.14,ZA,1611624879
185,tonj,7.2737,28.6822,73.99,40,23,4.45,SS,1611625285
186,cayenne,4.9333,-52.3333,77.0,100,90,13.82,GF,1611625008
187,nemuro,43.3236,145.575,19.4,58,20,1.14,JP,1611625006
188,biskamzha,53.4497,89.5272,-17.57,84,96,1.95,RU,1611625285
189,linfen,36.0889,111.5189,39.11,58,52,1.52,CN,1611625285
190,beloha,-25.1667,45.05,72.88,88,80,8.41,MG,1611624980
191,fort nelson,58.8053,-122.7002,-2.2,78,75,3.44,CA,1611624772
192,codrington,-38.2667,141.9667,64.51,62,57,15.01,AU,1611624941
193,aksay,47.26,39.87,33.01,93,75,20.13,RU,1611625102
194,lima,-12.0432,-77.0282,72.0,78,0,13.8,PE,1611624789
195,nova olimpia,-14.7972,-57.2881,74.66,87,100,1.16,BR,1611625286
196,sambava,-14.2667,50.1667,76.46,88,14,3.0,MG,1611625051
197,monroe,43.1501,-77.6831,28.4,64,75,3.44,US,1611625286
198,saltillo,25.4167,-101.0,78.8,24,1,11.5,MX,1611625287
199,mehamn,71.0357,27.8492,27.88,97,100,26.02,NO,1611624786
200,kostroma,57.7708,40.9344,33.8,75,90,6.71,RU,1611625287
201,biankouma,7.7391,-7.6138,70.95,25,93,2.33,CI,1611625287
202,zhifang,30.35,114.3167,39.2,100,90,2.24,CN,1611625287
203,batabano,22.7164,-82.2881,71.6,83,20,2.3,CU,1611625288
204,behbahan,30.5959,50.2417,41.0,75,0,1.54,IR,1611625288
205,jackson,42.4165,-122.8345,39.2,65,40,4.61,US,1611625025
206,cururupu,-1.8283,-44.8683,75.09,95,100,3.18,BR,1611625288
207,tezu,27.9167,96.1667,64.85,32,0,1.41,IN,1611625288
208,broome,42.2506,-75.833,25.0,63,1,1.45,US,1611624954
209,uglovskoye,51.3557,80.1942,5.13,95,100,6.06,RU,1611625289
210,norman wells,65.282,-126.8329,-11.2,77,90,4.61,CA,1611624952
211,west plains,36.7281,-91.8524,48.2,93,90,8.34,US,1611625099
212,berlevag,70.8578,29.0864,27.86,96,100,27.31,NO,1611625044
213,ferrol,43.4832,-8.2369,55.0,90,100,6.46,ES,1611625277
214,asau,46.4333,26.4,36.0,69,0,8.05,RO,1611625065
215,marabba,12.35,32.1833,71.28,25,0,11.97,SD,1611625290
216,kruisfontein,-34.0033,24.7314,63.0,91,0,2.71,ZA,1611624924
217,flinders,-34.5833,150.8552,99.0,40,85,1.99,AU,1611625008
218,cape town,-33.9258,18.4232,66.99,88,20,17.27,ZA,1611624793
219,marsa matruh,31.3525,27.2453,53.6,47,0,12.66,EG,1611624961
220,manokwari,-0.8667,134.0833,81.81,76,100,5.68,ID,1611625005
221,ishigaki,24.3448,124.1572,69.8,73,20,4.61,JP,1611625068
222,marawi,7.9986,124.2928,81.0,82,89,4.0,PH,1611624794
223,cidreira,-30.1811,-50.2056,75.83,86,48,9.98,BR,1611624944
224,koror,7.3398,134.4733,86.0,70,75,14.97,PW,1611625291
225,shymkent,42.3,69.6,23.0,93,39,2.24,KZ,1611625291
226,lebu,-37.6167,-73.65,57.16,83,0,15.41,CL,1611624939
227,nouadhibou,20.931,-17.0347,66.2,59,0,17.27,MR,1611625070
228,sibu,2.3,111.8167,77.0,94,40,1.25,MY,1611625047
229,dunedin,-45.8742,170.5036,75.22,46,100,2.95,NZ,1611624734
230,itoman,26.1247,127.6694,69.8,73,20,4.61,JP,1611624948
231,djambala,-2.5447,14.7533,67.95,93,95,1.19,CG,1611625292
232,bella union,-30.2752,-57.6007,81.79,56,2,7.27,UY,1611625292
233,hualmay,-11.0964,-77.6139,71.94,76,100,7.56,PE,1611624995
234,novyy urgal,51.0736,132.5642,-3.01,90,100,2.8,RU,1611625292
235,palmer,42.1584,-72.3287,28.0,54,90,6.91,US,1611625064
236,alexandria,31.2156,29.9553,50.0,93,0,3.44,EG,1611625211
237,baishishan,43.5833,127.5667,26.94,95,99,3.83,CN,1611625292
238,porbandar,21.6422,69.6093,59.58,41,0,12.15,IN,1611625292
239,tabou,4.423,-7.3528,77.5,87,0,6.22,CI,1611625092
240,tocopilla,-22.092,-70.1979,70.34,61,10,11.01,CL,1611625293
241,manuk mangkaw,4.8,119.85,81.0,79,100,7.7,PH,1611625293
242,acarau,-2.8856,-40.12,79.63,81,100,12.55,BR,1611625293
243,vylok,48.1092,22.8387,30.99,94,93,4.61,UA,1611625293
244,ixtapa,20.7,-105.2,73.4,73,90,4.61,MX,1611625066
245,te anau,-45.4167,167.7167,70.23,58,100,11.41,NZ,1611624983
246,minusinsk,53.7103,91.6875,-34.6,74,93,3.24,RU,1611625294
247,rio de jesus,7.9844,-81.1631,74.7,77,32,4.85,PA,1611625294
248,rio grande,-32.035,-52.0986,77.0,85,0,10.22,BR,1611625099
249,bontang,0.1333,117.5,83.44,68,98,1.03,ID,1611625029
250,ketrzyn,54.0768,21.3753,32.18,98,100,13.4,PL,1611625294
251,zhanaozen,43.3,52.8,29.68,87,22,23.4,KZ,1611625294
252,gunjur,13.2019,-16.7339,69.8,52,0,2.3,GM,1611625294
253,auki,-8.7676,160.7034,85.23,63,98,8.08,SB,1611625295
254,paidha,2.4167,30.9855,64.53,64,42,2.84,UG,1611625295
255,tiznit,29.5833,-9.5,55.09,62,0,1.63,MA,1611625295
256,sita buzaului,45.65,26.0667,32.0,95,100,11.99,RO,1611625295
257,kharp,66.8014,65.8081,-20.61,85,100,0.81,RU,1611624937
258,hollola,61.05,25.4333,32.0,99,100,1.99,FI,1611625295
259,mar del plata,-38.0023,-57.5575,82.4,74,40,6.91,AR,1611624739
260,castro,-24.7911,-50.0119,63.77,97,100,1.92,BR,1611624922
261,soe,-9.8607,124.284,72.9,82,100,6.58,ID,1611625062
262,makinsk,52.6292,70.4169,15.58,97,91,8.37,KZ,1611625070
263,saint george,37.1041,-113.5841,36.0,93,90,5.75,US,1611624949
264,datong,40.0936,113.2914,23.65,65,0,11.95,CN,1611625296
265,nacala,-14.5428,40.6728,75.63,89,61,5.12,MZ,1611625296
266,ascension,30.2169,-90.9001,73.4,88,90,10.36,US,1611625297
267,bosaso,11.2842,49.1816,69.46,75,16,3.47,SO,1611624929
268,oistins,13.0667,-59.5333,78.8,69,20,16.11,BB,1611624949
269,beira,-19.8436,34.8389,78.22,89,83,4.0,MZ,1611625297
270,somova,45.1833,28.6667,34.0,86,75,5.75,RO,1611625297
271,katsuura,35.1333,140.3,51.01,66,75,10.36,JP,1611625006
272,pevek,69.7008,170.3133,-28.14,85,100,5.93,RU,1611624988
273,kargasok,59.0556,80.8572,-46.61,77,50,7.61,RU,1611625297
274,bukama,-9.2,25.85,65.84,93,97,1.34,CD,1611625297
275,floro,61.5996,5.0328,33.8,93,90,5.75,NO,1611624926
276,katobu,-4.9408,122.5276,84.7,68,100,8.63,ID,1611625298
277,jaguaribe,-5.8906,-38.6219,78.85,74,98,6.89,BR,1611625298
278,nanortalik,60.1432,-45.2371,19.15,87,0,9.06,GL,1611624972
279,los llanos de aridane,28.6585,-17.9182,66.2,68,90,8.05,ES,1611624945
280,caravelas,-17.7125,-39.2481,75.29,81,100,2.46,BR,1611624934
281,lethem,3.3803,-59.7968,79.9,62,100,11.27,GY,1611625299
282,torbay,47.6666,-52.7314,28.99,93,90,10.36,CA,1611624930
283,lexington,37.9887,-84.4777,45.0,93,90,10.36,US,1611625143
284,bwanga,-3.0308,31.7601,62.62,96,100,4.54,TZ,1611625299
285,les escoumins,48.1111,-69.0236,23.0,86,97,17.27,CA,1611625299
286,zeya,53.75,127.2667,-9.96,87,100,5.95,RU,1611625098
287,la libertad,-2.2333,-80.9,78.08,77,98,6.35,EC,1611625299
288,severo-yeniseyskiy,60.3725,93.0408,-47.15,79,43,0.38,RU,1611625300
289,comodoro rivadavia,-45.8667,-67.5,62.6,29,0,21.85,AR,1611625070
290,turka,49.1541,23.0297,30.99,86,100,5.99,UA,1611625300
291,vallenar,-28.5708,-70.7581,63.97,63,37,2.46,CL,1611625028
292,haines junction,60.7522,-137.5108,6.8,85,100,1.14,CA,1611624995
293,beringovskiy,63.05,179.3167,-2.7,92,100,15.57,RU,1611624974
294,prince rupert,54.3161,-130.3201,37.4,93,1,5.19,CA,1611625033
295,mnogovershinnyy,53.9353,139.9242,-12.44,81,62,2.04,RU,1611625301
296,richards bay,-28.783,32.0377,69.53,87,90,6.35,ZA,1611624792
297,keti bandar,24.1447,67.4497,58.41,31,0,8.86,PK,1611625301
298,banda aceh,5.5577,95.3222,80.56,74,58,10.25,ID,1611624939
299,clyde river,70.4692,-68.5914,6.8,92,1,18.41,CA,1611625010
300,nuevo progreso,23.1667,-97.95,73.0,66,28,4.0,MX,1611625008
301,qaqortoq,60.7167,-46.0333,24.8,26,55,27.63,GL,1611625012
302,rock springs,41.5875,-109.2029,17.6,86,90,6.91,US,1611625224
303,emerald,-23.5333,148.1667,89.01,48,40,6.91,AU,1611624982
304,rustenburg,-25.6676,27.2421,64.85,92,100,8.63,ZA,1611625302
305,kempsey,-31.0833,152.8333,87.01,65,0,5.99,AU,1611625089
306,marau,-28.4492,-52.2,66.18,96,0,4.36,BR,1611625302
307,tazovskiy,67.4667,78.7,-26.77,86,100,19.48,RU,1611625302
308,aklavik,68.2191,-135.0107,-7.6,77,97,3.44,CA,1611624928
309,coquimbo,-29.9533,-71.3436,62.6,82,75,6.91,CL,1611624959
310,komsomolskiy,40.4272,71.7189,19.4,79,33,4.61,UZ,1611624931
311,samarai,-10.6167,150.6667,84.72,70,61,0.65,PG,1611625002
312,hobyo,5.3505,48.5268,75.02,74,23,18.1,SO,1611624986
313,baykalovo,57.3981,63.7684,29.68,97,98,11.56,RU,1611625303
314,kuito,-12.3833,16.9333,60.71,92,100,6.6,AO,1611625303
315,ondo,7.1,4.8333,70.3,94,73,2.04,NG,1611625303
316,sept-iles,50.2001,-66.3821,34.0,60,100,9.22,CA,1611625023
317,valley station,38.1112,-85.8702,39.2,93,90,5.75,US,1611625304
318,ustyuzhna,58.8394,36.4321,34.27,98,100,7.49,RU,1611625304
319,hedaru,-4.5,37.9,68.5,89,34,1.9,TZ,1611625304
320,port blair,11.6667,92.75,76.44,74,36,9.13,IN,1611624845
321,mancio lima,-7.6142,-72.8958,73.9,95,100,1.5,BR,1611625304
322,krasnogvardeyskiy,57.3793,62.3195,28.87,96,92,9.78,RU,1611625304
323,khani,41.9563,42.9566,46.4,36,0,9.22,GE,1611625304
324,mingoyo,-10.1,39.6333,75.2,88,20,8.05,TZ,1611625305
325,paramonga,-10.6667,-77.8333,71.49,79,100,5.14,PE,1611625178
326,kenai,60.5544,-151.2583,26.6,86,1,9.22,US,1611624945
327,dibulla,11.2725,-73.3091,76.62,71,100,12.1,CO,1611625305
328,boyolangu,-8.1181,111.8935,84.43,61,41,2.53,ID,1611625305
329,awash,8.9833,40.1667,60.84,60,0,1.48,ET,1611625305
330,kuryk,43.2,51.65,35.04,83,0,24.76,KZ,1611625067
331,abong mbang,3.9833,13.1833,62.01,46,1,2.57,CM,1611625306
332,vostok,46.4856,135.8833,17.47,96,100,5.61,RU,1611625015
333,cairns,-16.9167,145.7667,86.0,66,75,8.05,AU,1611625306
334,svetlyy,54.675,20.1347,36.0,100,75,4.47,RU,1611625043
335,talnakh,69.4865,88.3972,-31.43,82,100,9.57,RU,1611624970
336,la ronge,55.1001,-105.2842,-25.6,68,0,1.63,CA,1611624944
337,bousso,10.4795,16.7117,71.73,22,19,7.83,TD,1611625306
338,grand gaube,-20.0064,57.6608,75.0,81,4,4.0,MU,1611624757
339,sorland,67.667,12.6934,37.67,79,81,23.29,NO,1611625109
340,yerbogachen,61.2767,108.0108,-39.14,81,70,2.57,RU,1611625045
341,carutapera,-1.195,-46.02,76.39,90,70,4.34,BR,1611625010
342,wooster,40.8051,-81.9351,30.99,86,90,9.22,US,1611625307
343,yermakovskoye,53.2831,92.4003,-10.5,90,100,0.92,RU,1611625307
344,ibanda,-2.7974,32.4746,62.96,95,99,4.45,TZ,1611625307
345,alice,27.7523,-98.0697,75.2,49,90,9.22,US,1611625308
346,tautira,-17.7333,-149.15,87.8,55,75,5.75,PF,1611625003
347,karpathos,35.507,27.2132,62.6,72,100,17.27,GR,1611625308
348,cap malheureux,-19.9842,57.6142,75.0,81,6,5.01,MU,1611624966
349,odweyne,9.4092,45.064,62.17,28,0,9.93,SO,1611625025
350,fonte boa,-2.4959,-66.2662,74.46,96,100,2.51,BR,1611625308
351,lorengau,-2.0226,147.2712,85.71,63,44,8.46,PG,1611624985
352,santiago,-33.4569,-70.6483,73.4,49,0,11.5,CL,1611625178
353,port hedland,-20.3167,118.5667,93.2,31,100,5.75,AU,1611624739
354,hede,33.7681,120.2517,47.41,85,81,9.62,CN,1611625309
355,gdov,58.7406,27.8122,33.75,97,100,6.29,RU,1611625309
356,yulara,-25.2406,130.9889,93.2,36,0,4.61,AU,1611624999
357,arawa,-6.2132,155.5367,91.4,48,76,5.23,PG,1611625040
358,esperance,-33.8667,121.9,69.8,49,19,6.91,AU,1611624973
359,japura,-0.3167,102.35,79.75,83,93,1.34,ID,1611625310
360,sisimiut,66.9395,-53.6735,12.24,94,92,2.91,GL,1611624963
361,punta cardon,11.6581,-70.215,77.31,80,100,22.44,VE,1611625310
362,jiwani,25.05,61.7417,63.0,29,0,6.13,PK,1611625310
363,mareeba,-17.0,145.4333,86.0,66,75,8.05,AU,1611625310
364,san patricio,28.017,-97.5169,75.2,57,90,6.91,US,1611624817
365,pietarsaari,63.65,22.6833,30.0,100,90,1.14,FI,1611625311
366,pimentel,-6.8367,-79.9342,72.82,77,99,10.4,PE,1611625311
367,sioux lookout,50.1001,-91.917,-16.6,76,1,3.44,CA,1611625071
368,punta gorda,26.9298,-82.0454,70.0,78,1,5.75,US,1611625311
369,naryan-mar,67.6713,53.087,-6.56,91,100,16.42,RU,1611625050
370,arman,59.7,150.1667,-4.04,81,100,12.21,RU,1611625082
371,pakxan,18.3778,103.6601,74.95,59,88,4.54,LA,1611625311
372,port keats,-14.25,129.55,77.56,91,100,11.01,AU,1611625080
373,daye,30.0833,114.95,45.86,71,0,6.89,CN,1611625312
374,ahtopol,42.1,27.95,42.8,87,0,17.11,BG,1611625312
375,ahuimanu,21.4447,-157.8378,77.0,69,90,16.11,US,1611624946
376,gorontalo,0.5412,123.0595,82.31,69,100,2.68,ID,1611624982
377,diffa,13.3154,12.6113,66.18,23,77,9.75,NE,1611625312
378,marsh harbour,26.5412,-77.0636,74.07,78,100,17.67,BS,1611624930
379,gigmoto,13.7796,124.39,81.3,68,64,6.8,PH,1611625312
380,lagoa,39.05,-27.9833,61.52,88,99,19.1,PT,1611625032
381,camana,-16.6228,-72.7111,71.08,77,5,6.98,PE,1611625072
382,half moon bay,37.4636,-122.4286,48.2,66,20,25.32,US,1611625048
383,whitianga,-36.8333,175.7,82.0,65,3,8.99,NZ,1611625313
384,magnolia,33.2671,-93.2393,60.8,77,20,5.75,US,1611625313
385,multai,21.7667,78.25,57.43,42,0,2.62,IN,1611625313
386,wanning,18.8003,110.3967,73.24,76,31,8.79,CN,1611625313
387,atar,20.5169,-13.0499,66.36,21,0,9.1,MR,1611625092
388,matara,5.9485,80.5353,71.96,84,79,8.08,LK,1611625314
389,sao felix do xingu,-6.6447,-51.995,72.03,94,33,0.63,BR,1611625314
390,juba,4.8517,31.5825,74.64,48,0,2.15,SS,1611625099
391,kolchugino,56.3,39.3833,29.89,98,100,9.44,RU,1611625314
392,chapais,49.7834,-74.8492,-5.8,84,1,1.95,CA,1611625314
393,itarema,-2.9248,-39.9167,79.47,80,100,11.52,BR,1611624939
394,baykit,61.67,96.37,-41.12,74,35,0.85,RU,1611625314
395,weihai,37.5017,122.1136,39.94,80,96,14.12,CN,1611625315
396,manyana,-23.4,21.7167,71.37,67,95,0.98,BW,1611625315
397,huambo,-12.7761,15.7392,62.15,79,99,2.24,AO,1611625018
398,cordoba,-31.4135,-64.1811,75.99,94,20,6.91,AR,1611625060
399,nantucket,41.2835,-70.0995,24.8,68,1,3.44,US,1611624863
400,rawson,-43.3002,-65.1023,65.93,51,0,16.49,AR,1611624770
401,sibolga,1.7427,98.7792,82.4,65,67,2.13,ID,1611624805
402,tumut,-35.3,148.2167,73.4,83,90,9.22,AU,1611625315
403,areka,7.0667,37.7,60.19,53,58,5.79,ET,1611625316
404,qasigiannguit,68.8193,-51.1922,6.8,56,0,10.36,GL,1611625316
405,longyearbyen,78.2186,15.6401,2.01,88,52,8.21,SJ,1611624929
406,merced,37.1666,-120.7516,50.0,46,1,8.05,US,1611624998
407,san quintin,30.4833,-115.95,52.92,60,95,30.15,MX,1611624751
408,chara,56.9064,118.2631,-17.0,84,100,3.76,RU,1611625100
409,touros,-5.1989,-35.4608,78.8,78,40,6.91,BR,1611624946
410,olinda,-8.0089,-34.8553,78.8,65,75,13.8,BR,1611625035
411,kiruna,67.8557,20.2251,-7.6,84,90,2.3,SE,1611625317
412,chililabombwe,-12.3648,27.8229,62.33,98,100,3.11,ZM,1611625317
413,najran,17.4924,44.1277,50.0,40,1,1.41,SA,1611625317
414,lavrentiya,65.5833,-171.0,-0.56,87,100,5.32,RU,1611624935
415,bengkulu,-3.8004,102.2655,74.35,88,100,7.11,ID,1611624744
416,aanekoski,62.6946,25.818,32.0,100,90,5.75,FI,1611625317
417,saldanha,-33.0117,17.9442,62.6,82,0,10.36,ZA,1611624754
418,tra vinh,9.9347,106.3453,80.53,65,100,9.06,VN,1611625145
419,vega de alatorre,20.0333,-96.6333,76.08,79,0,7.58,MX,1611625057
420,bonavista,48.6499,-53.1147,30.99,93,100,6.91,CA,1611625066
421,beidao,34.5686,105.8933,28.0,70,100,3.0,CN,1611625318
422,takoradi,4.8845,-1.7554,77.85,83,22,5.17,GH,1611625001
423,saint anthony,45.0205,-93.218,19.4,49,90,9.22,US,1611625013
424,kazachinskoye,57.6953,93.2761,-33.66,82,95,2.51,RU,1611625318
425,namikupa,-10.8333,39.6,68.72,96,83,2.04,TZ,1611625319
426,maunabo,18.0072,-65.8993,75.0,86,2,1.99,PR,1611625319
427,new milford,40.9327,-74.0179,33.01,47,1,4.61,US,1611625319
428,fortuna,40.5982,-124.1573,43.0,93,1,3.6,US,1611624933
429,mutoko,-17.397,32.2268,61.63,98,100,0.43,ZW,1611625319
430,kyabe,9.4515,18.9449,74.19,21,100,4.47,TD,1611625319
431,bilma,18.6853,12.9164,57.31,28,23,5.28,NE,1611625067
432,maku,39.2911,44.4521,21.58,79,100,3.0,IR,1611625320
433,denizli,37.8402,29.0698,48.2,66,75,8.05,TR,1611625108
434,salinas,36.6777,-121.6555,50.0,57,1,20.71,US,1611625320
435,shellbrook,53.2168,-106.4011,-23.8,69,20,2.82,CA,1611625320
436,abu samrah,35.3029,37.1841,39.54,72,0,2.19,SY,1611625056
437,fukue,32.6881,128.8419,59.0,94,75,21.85,JP,1611624961
438,ruteng,-8.6136,120.4721,73.49,77,99,4.18,ID,1611625160
439,laguna,38.421,-121.4238,51.8,32,1,6.91,US,1611624965
440,christiana,-27.914,25.1611,66.63,80,100,11.88,ZA,1611625321
441,osmena,10.5208,119.9258,81.16,72,100,16.33,PH,1611625321
442,tripoli,32.8752,13.1875,60.94,58,94,14.14,LY,1611624921
443,jiuquan,39.7432,98.5174,17.47,85,75,4.12,CN,1611624935
444,platanos,37.6667,21.6167,55.4,82,87,2.3,GR,1611625322
445,umm kaddadah,13.6017,26.6876,64.2,23,87,15.73,SD,1611624960
446,rupert,42.6191,-113.6772,28.4,69,75,6.38,US,1611625322
447,vung tau,10.346,107.0843,77.49,73,56,5.68,VN,1611625171
448,pacific grove,36.6177,-121.9166,50.0,62,75,20.71,US,1611625067
449,sayyan,15.1718,44.3244,41.63,54,3,2.04,YE,1611625322
450,zhezkazgan,47.8043,67.7144,10.4,79,90,2.24,KZ,1611625015
451,cherskiy,68.75,161.3,-36.56,82,62,3.24,RU,1611624799
452,whakatane,-37.9585,176.9854,82.99,44,0,4.0,NZ,1611625323
453,ornes,66.8689,13.7078,32.0,64,75,13.8,NO,1611625323
454,gravdal,68.1214,13.5031,31.55,98,100,11.03,NO,1611624998
455,parfenyevo,58.484,43.4088,28.42,98,100,7.61,RU,1611625323
456,chik,54.9928,82.4311,-43.6,66,20,2.24,RU,1611625323
457,oshnaviyeh,37.0397,45.0983,15.8,86,100,6.91,IR,1611625323
458,sinnamary,5.3833,-52.95,77.27,86,43,14.0,GF,1611625323
459,ramhormoz,31.28,49.6035,52.59,42,0,4.52,IR,1611625324
460,kamenka,51.3223,42.7678,33.24,94,100,16.6,RU,1611625059
461,tairua,-37.0167,175.85,80.78,49,0,4.09,NZ,1611625059
462,horconcitos,8.4682,-81.8007,65.62,87,45,6.91,PA,1611625324
463,khasan,42.4308,130.6434,32.22,97,100,0.81,RU,1611625324
464,nome,64.5011,-165.4064,3.2,85,90,3.44,US,1611624776
465,aykhal,66.0,111.5,-38.78,78,33,1.32,RU,1611624928
466,rio gallegos,-51.6226,-69.2181,48.2,40,0,25.32,AR,1611624686
467,aljezur,37.3191,-8.8033,59.0,100,95,1.99,PT,1611625325
468,korem,12.5058,39.5228,45.03,69,0,1.95,ET,1611625325
469,yumbo,3.5823,-76.4915,73.4,78,75,5.75,CO,1611625325
470,cartagena del chaira,1.3349,-74.8429,72.05,94,100,1.63,CO,1611625325
471,kimberley,-28.7323,24.7623,64.4,77,100,8.05,ZA,1611625035
472,road town,18.4167,-64.6167,77.0,78,40,8.05,VG,1611625326
473,tabuk,17.4189,121.4443,75.58,86,94,5.46,PH,1611625326
474,photharam,13.6923,99.8497,82.99,78,0,3.74,TH,1611625326
475,kuusamo,65.9667,29.1833,21.2,86,90,6.91,FI,1611625326
476,dahra,36.2546,0.8519,60.8,72,75,14.97,DZ,1611625326
477,namatanai,-3.6667,152.4333,85.21,66,53,5.84,PG,1611624990
478,rena,61.1348,11.3641,12.65,88,0,4.18,NO,1611625326
479,abbeville,50.1,1.8333,35.01,84,2,8.41,FR,1611624926
480,tumpat,6.1978,102.171,75.2,88,20,3.44,MY,1611625327
481,maicao,11.3832,-72.2432,76.37,78,100,11.05,CO,1611624978
482,walvis bay,-22.9575,14.5053,69.01,82,100,4.61,NA,1611624984
483,deputatskiy,69.3,139.9,-42.77,82,29,1.77,RU,1611624997
484,talavera de la reina,39.9635,-4.8308,53.85,93,100,8.61,ES,1611625327
485,nador,35.174,-2.9287,62.6,82,0,25.32,MA,1611624979
486,bilibino,68.0546,166.4372,-28.53,82,83,1.63,RU,1611625327
487,amboasary,-25.0333,46.3833,78.8,89,40,4.61,MG,1611625044
488,ahipara,-35.1667,173.1667,74.59,61,33,9.75,NZ,1611624986
489,newport,51.5877,-2.9984,35.01,95,100,8.72,GB,1611625255
490,ternate,0.8,127.4,81.63,74,100,6.42,ID,1611624975
491,salvador,13.8333,-88.9167,78.8,78,0,4.61,SV,1611625328
492,cayce,33.9657,-81.074,55.4,88,75,4.61,US,1611625328
493,havre,49.5833,0.3333,41.0,75,75,16.11,FR,1611625328
494,del rio,29.3627,-100.8968,68.0,28,1,3.44,US,1611625328
495,dongsheng,39.8161,109.9776,18.34,69,0,16.04,CN,1611624967
496,seoul,37.5683,126.9778,42.8,81,90,5.75,KR,1611625180
497,nuziders,47.1667,9.8,30.99,92,100,1.01,AT,1611625329
498,kristianstad,56.0313,14.1524,33.01,100,90,4.61,SE,1611625329
499,raga,8.4596,25.678,67.21,26,39,4.27,SS,1611625329
500,yazman,29.1212,71.7446,46.2,47,0,1.72,PK,1611625102
501,binzhou,37.3667,118.0167,37.0,88,0,6.82,CN,1611625329
502,sorochinsk,52.4338,53.1583,19.31,97,100,10.85,RU,1611625330
503,lubao,14.9167,120.55,80.6,94,75,2.3,PH,1611625037
504,pochutla,15.7432,-96.4661,78.8,83,40,5.75,MX,1611624976
505,faya,18.3851,42.4509,53.6,58,0,0.6,SA,1611624927
506,pirgos,35.1167,25.7178,61.0,72,100,10.76,GR,1611625330
507,claremore,36.3126,-95.6161,45.0,76,90,6.91,US,1611625330
508,jasdan,22.0333,71.2,51.8,50,0,3.44,IN,1611625330
509,brae,60.3964,-1.353,30.2,74,43,2.3,GB,1611625085
510,lebedinyy,58.5167,125.5167,-33.72,82,100,4.83,RU,1611625064
511,christchurch,-43.5333,172.6333,84.99,42,38,9.22,NZ,1611624941
512,abha,18.2164,42.5053,53.6,58,0,0.76,SA,1611625331
513,nyimba,-14.5566,30.8149,66.54,92,100,3.89,ZM,1611625331
514,sidney,-33.8679,151.2073,100.4,19,0,14.97,AU,1611625177
515,jibuti,11.5,42.5,69.8,78,1,13.51,DJ,1611625332
516,salinopolis,-0.6136,-47.3561,79.57,83,100,8.01,BR,1611624986
517,hanmer springs,-42.5167,172.8167,86.76,25,0,12.68,NZ,1611625332
518,alofi,-19.0595,-169.9187,82.4,78,90,8.05,NU,1611624993
519,aksu,41.1231,80.2644,14.79,89,19,2.64,CN,1611625332
520,vasterhaninge,59.1167,18.1,30.0,72,69,7.58,SE,1611625332
521,calama,-22.4667,-68.9333,60.8,33,20,16.11,CL,1611625333
522,arkadelphia,34.1209,-93.0538,60.8,72,1,8.05,US,1611625214
523,nehe,48.4833,124.8333,-1.64,89,0,8.08,CN,1611625333
524,weihe,32.9952,105.3247,39.15,61,79,3.06,CN,1611625333
525,turayf,31.6725,38.6637,37.4,60,0,6.91,SA,1611625063
526,waingapu,-9.6567,120.2641,84.33,71,91,11.43,ID,1611625333
527,maidstone,51.2667,0.5167,34.0,93,42,7.72,GB,1611625036
528,luwuk,-0.9516,122.7875,77.31,81,100,2.68,ID,1611624962
529,mayumba,-3.432,10.6554,78.04,86,65,3.8,GA,1611625078
530,bridgetown,13.1,-59.6167,78.8,69,20,16.11,BB,1611625233
531,ponta delgada,37.7333,-25.6667,63.0,94,75,13.8,PT,1611624991
532,ushtobe,45.2514,77.9838,2.41,90,38,3.02,KZ,1611625334
533,port hope,43.9408,-82.7127,30.2,69,99,18.41,US,1611625334
534,tomatlan,19.9333,-105.25,65.5,85,0,1.88,MX,1611625334
535,xai-xai,-25.0519,33.6442,75.02,94,83,6.29,MZ,1611625334
536,bara,10.3744,10.7288,69.4,22,60,8.23,NG,1611625049
537,sergeyevka,53.88,67.4158,19.09,97,72,10.54,KZ,1611625102
538,vestmannaeyjar,63.4427,-20.2734,33.48,90,100,36.6,IS,1611624963
539,kampot,10.6167,104.1833,80.6,65,40,6.91,KH,1611625335
540,glyadyanskoye,54.9075,65.0883,18.77,96,99,8.66,RU,1611625335
541,zabid,14.1951,43.3152,70.32,74,13,3.83,YE,1611625335
542,baturaja,-4.1333,104.1667,75.42,91,98,3.56,ID,1611625335
543,santa barbara,34.7333,-120.0343,46.99,65,40,27.63,US,1611625151
544,severo-kurilsk,50.6789,156.125,21.27,94,79,21.09,RU,1611624933
545,farah,32.5,62.5,32.36,70,0,1.9,AF,1611625336
546,yarada,17.65,83.2667,68.0,100,20,2.3,IN,1611625336
547,cam ranh,11.9214,109.1591,77.0,65,20,8.05,VN,1611625184
548,macapa,0.0389,-51.0664,78.8,89,40,2.3,BR,1611625336
549,burlington,39.8835,-74.6413,33.01,51,90,3.15,US,1611625337
550,aviemore,57.1955,-3.8259,32.0,93,76,2.64,GB,1611625337
551,tres lagoas,-20.7511,-51.6783,73.62,84,100,4.97,BR,1611625337
552,saint-georges,12.0564,-61.7485,78.8,78,20,18.41,GD,1611625337
553,petropavlovsk-kamchatskiy,53.0452,158.6483,12.2,57,20,4.47,RU,1611625040
554,vilcun,-38.65,-72.2333,59.0,77,0,6.91,CL,1611625337
555,mangan,27.5167,88.5333,55.04,34,0,3.33,IN,1611625337
556,praia,14.9215,-23.5087,69.8,64,0,8.05,CV,1611625011
557,indramayu,-6.3264,108.32,80.64,78,89,6.82,ID,1611625333
558,bere,9.3202,16.1552,70.38,23,95,4.92,TD,1611625338
559,high level,58.5169,-117.136,-7.6,84,90,5.75,CA,1611624943
560,mpanda,-6.3655,31.0409,64.8,93,100,0.6,TZ,1611625338
561,kamina,-8.7386,24.9906,60.94,98,94,1.03,CD,1611625338
562,srandakan,-7.9386,110.2506,84.42,67,65,5.59,ID,1611624966
563,poum,-20.2333,164.0167,80.01,75,100,16.82,NC,1611624997
564,asyut,27.181,31.1837,48.2,87,0,11.5,EG,1611625339
565,mubende,0.5606,31.39,62.73,82,99,0.54,UG,1611625339
566,novyy urengoy,66.0833,76.6333,-27.31,85,100,20.62,RU,1611625339
567,evanston,42.0411,-87.6901,34.0,86,90,21.85,US,1611625339
568,lira,2.235,32.9097,67.17,60,0,2.86,UG,1611625097
569,synya,65.3718,58.0387,23.63,98,100,2.33,RU,1611625339
570,ati,13.2154,18.3353,71.08,21,99,11.05,TD,1611625340
571,coihaique,-45.5752,-72.0662,48.2,66,75,6.91,CL,1611625069
572,awjilah,29.1081,21.2869,53.35,41,38,4.56,LY,1611625340
573,port hardy,50.6996,-127.4199,37.4,100,40,2.3,CA,1611624785
574,creston,41.0586,-94.3614,23.0,100,90,20.71,US,1611625340
575,wagar,16.1525,36.2032,66.11,91,76,9.42,SD,1611625340
576,ninohe,40.2724,141.3061,37.06,79,100,4.61,JP,1611625341
577,teguise,29.0605,-13.564,64.4,77,20,14.97,ES,1611625341
578,phuket,8.0,98.25,84.99,83,20,5.75,TH,1611624963
